{
  "type": "FeatureCollection",
  "features": [
    {
      "type": "Feature",
      "geometry": {
        "type": "Point",
        "coordinates": [-0.0198493, 51.5834223]
      },
      "properties": {
        "name": "Goose Walthamstow",
        "category": "pub",
        "address": "264 Hoe Street",
        "postcode": "E17 3AX",
        "baby_change": "yes",
        "changing_location": "public toilet behind bar",
        "verified": false
      }
    },
    {
      "type": "Feature",
      "geometry": {
        "type": "Point",
        "coordinates": [-0.017091, 51.590282]
      },
      "properties": {
        "name": "The Bell Walthamstow",
        "category": "pub",
        "address": "617 Forest Road",
        "postcode": "E17 4NE",
        "baby_change": "yes",
        "changing_location": "all-gender loo downstairs",
        "verified": true
      }
    },
    {
      "type": "Feature",
      "geometry": {
        "type": "Point",
        "coordinates": [-0.05414, 51.58548]
      },
      "properties": {
        "name": "Walthamstow Wetlands Visitor Centre",
        "category": "nature reserve",
        "address": "2 Forest Road",
        "postcode": "N17 9NH",
        "baby_change": "yes",
        "changing_location": "visitor centre toilets",
        "verified": true
      }
    },
    {
      "type": "Feature",
      "geometry": {
        "type": "Point",
        "coordinates": [-0.0130526, 51.5825293]
      },
      "properties": {
        "name": "Eat17",
        "category": "restaurant",
        "address": "28-30 Orford Road",
        "postcode": "E17 9NJ",
        "baby_change": "yes",
        "changing_location": "changing tables in loos accessible to all genders",
        "verified": true
      }
    },
    {
      "type": "Feature",
      "geometry": {
        "type": "Point",
        "coordinates": [-0.0123562, 51.5825715]
      },
      "properties": {
        "name": "The Kitchen",
        "category": "restaurant",
        "address": "Orford Road",
        "postcode": "E17 9NJ",
        "baby_change": "yes",
        "changing_location": "baby change in the women's toilets",
        "verified": false
      }
    },
    {
      "type": "Feature",
      "geometry": {
        "type": "Point",
        "coordinates": [-0.0236952, 51.5830096]
      },
      "properties": {
        "name": "17 & Central Shopping Mall",
        "category": "shopping",
        "address": "Selborne Walk",
        "postcode": "E17 7JR",
        "baby_change": "yes",
        "changing_location": "brilliant parent & baby room upstairs at CRATE17",
        "verified": true,
        "notes": "Private feeding rooms available"
      }
    },
    {
      "type": "Feature",
      "geometry": {
        "type": "Point",
        "coordinates": [-0.0437212, 51.5952858]
      },
      "properties": {
        "name": "Sainsbury's Walthamstow",
        "category": "supermarket",
        "address": "112 High Street",
        "postcode": "E17 7JY",
        "baby_change": "yes",
        "changing_location": "baby change in the customer toilets",
        "verified": false
      }
    },
    {
      "type": "Feature",
      "geometry": {
        "type": "Point",
        "coordinates": [-0.0311742, 51.5758523]
      },
      "properties": {
        "name": "Walthamstow Leisure Centre",
        "category": "leisure",
        "address": "Kirkdale Road",
        "postcode": "E17 8RN",
        "baby_change": "yes",
        "changing_location": "baby change in the changing rooms",
        "verified": true
      }
    },
    {
      "type": "Feature",
      "geometry": {
        "type": "Point",
        "coordinates": [-0.0237419, 51.5843324]
      },
      "properties": {
        "name": "Walthamstow Library",
        "category": "library",
        "address": "High Street",
        "postcode": "E17 7JN",
        "baby_change": "yes",
        "changing_location": "baby change in the accessible toilets",
        "verified": true
      }
    },
    {
      "type": "Feature",
      "geometry": {
        "type": "Point",
        "coordinates": [-0.0228598, 51.5912678]
      },
      "properties": {
        "name": "William Morris Gallery",
        "category": "museum",
        "address": "Lloyd Park",
        "postcode": "E17 4PP",
        "baby_change": "yes",
        "changing_location": "baby change in the gallery toilets",
        "verified": true,
        "notes": "Open during gallery hours"
      }
    },
    {
      "type": "Feature",
      "geometry": {
        "type": "Point",
        "coordinates": [-0.0349865, 51.576929]
      },
      "properties": {
        "name": "Walthamstow Pumphouse Museum",
        "category": "museum",
        "address": "South Access Road",
        "postcode": "E17 8AX",
        "baby_change": "yes",
        "changing_location": "baby change in the toilets",
        "verified": true,
        "notes": "Open 2nd & 4th Sunday"
      }
    },
    {
      "type": "Feature",
      "geometry": {
        "type": "Point",
        "coordinates": [-0.0218803, 51.5935402]
      },
      "properties": {
        "name": "Lloyd Park Centre",
        "category": "park",
        "address": "Forest Road",
        "postcode": "E17 4PP",
        "baby_change": "yes",
        "changing_location": "baby change in the centre toilets",
        "verified": true,
        "notes": "Only open Sunday and Monday"
      }
    },
    {
      "type": "Feature",
      "geometry": {
        "type": "Point",
        "coordinates": [-0.0240732, 51.5878076]
      },
      "properties": {
        "name": "Greenleaf Road Baptist Church",
        "category": "church",
        "address": "4 Greenleaf Road",
        "postcode": "E17 6QQ",
        "baby_change": "yes",
        "changing_location": "accessible toilet and baby changing area",
        "verified": false,
        "notes": "Community Living Room - Mon 10:30am-2pm"
      }
    },
    {
      "type": "Feature",
      "geometry": {
        "type": "Point",
        "coordinates": [-0.0184274, 51.6033249]
      },
      "properties": {
        "name": "Walthamstow Stadium (Better Gym)",
        "category": "gym",
        "address": "Chingford Road",
        "postcode": "E4 8SJ",
        "baby_change": "yes",
        "changing_location": "baby change in the accessible toilets",
        "verified": false,
        "notes": "Community Hub - Thu 12pm-3pm"
      }
    },
    {
      "type": "Feature",
      "geometry": {
        "type": "Point",
        "coordinates": [-0.0019674, 51.5749549]
      },
      "properties": {
        "name": "The Cornerstone",
        "category": "community",
        "address": "149 Canterbury Road",
        "postcode": "E10 6EH",
        "baby_change": "yes",
        "changing_location": "community facilities",
        "verified": false,
        "notes": "Parent & baby drop-in Thu 10:30am-12pm"
      }
    },
    {
      "type": "Feature",
      "geometry": {
        "type": "Point",
        "coordinates": [-0.0235354, 51.5907135]
      },
      "properties": {
        "name": "Walthamstow Salvation Army",
        "category": "community",
        "address": "434 Forest Road",
        "postcode": "E17 4PY",
        "baby_change": "yes",
        "changing_location": "in The Meeting Place facilities",
        "verified": true,
        "notes": "The Meeting Place - has play space"
      }
    },
    {
      "type": "Feature",
      "geometry": {
        "type": "Point",
        "coordinates": [-0.0371749, 51.581356]
      },
      "properties": {
        "name": "The Mill",
        "category": "community",
        "address": "7-11 Coppermill Lane",
        "postcode": "E17 7HA",
        "baby_change": "yes",
        "changing_location": "baby change in accessible toilets",
        "verified": true,
        "notes": "Children's playroom for under 5s"
      }
    },
    {
      "type": "Feature",
      "geometry": {
        "type": "Point",
        "coordinates": [-0.0296598, 51.5936904]
      },
      "properties": {
        "name": "Priory Court Community Centre",
        "category": "community",
        "address": "11 Priory Court",
        "postcode": "E17 5NB",
        "baby_change": "yes",
        "changing_location": "baby change in the women's loos",
        "verified": false,
        "notes": "Closed at the weekend"
      }
    },
    {
      "type": "Feature",
      "geometry": {
        "type": "Point",
        "coordinates": [-0.0325923, 51.5805997]
      },
      "properties": {
        "name": "Crate St James",
        "category": "cafe",
        "address": "35 St James Street",
        "postcode": "E17 7FY",
        "baby_change": "yes",
        "changing_location": "baby changing in the loos",
        "verified": false
      }
    },
    {
      "type": "Feature",
      "geometry": {
        "type": "Point",
        "coordinates": [-0.0156041509369, 51.5901480948406]
      },
      "properties": {
        "name": "Enjoy Café",
        "category": "cafe",
        "address": "623 Forest Road",
        "postcode": "E17 4NA",
        "baby_change": "yes",
        "changing_location": "baby change in café toilets",
        "verified": true
      }
    },
    {
      "type": "Feature",
      "geometry": {
        "type": "Point",
        "coordinates": [-0.020286290556566, 51.5882196586144]
      },
      "properties": {
        "name": "Le Delice Restaurant",
        "category": "restaurant",
        "address": "114 Hoe Street",
        "postcode": "E17 4QR",
        "baby_change": "yes",
        "changing_location": "baby change in restaurant toilets",
        "verified": true
      }
    },
    {
      "type": "Feature",
      "geometry": {
        "type": "Point",
        "coordinates": [-0.0183261822375, 51.5837207038538]
      },
      "properties": {
        "name": "McDonald's - Walthamstow",
        "category": "fast food",
        "address": "258-260 Hoe Street",
        "postcode": "E17 3AX",
        "baby_change": "yes",
        "changing_location": "baby change in customer toilets",
        "verified": false
      }
    },
    {
      "type": "Feature",
      "geometry": {
        "type": "Point",
        "coordinates": [-0.00514047705989, 51.5872792967556]
      },
      "properties": {
        "name": "Wood Street Library",
        "category": "public building",
        "address": "1 Troubridge Square",
        "postcode": "E17 3HB",
        "baby_change": "yes",
        "changing_location": "baby change in library toilets",
        "verified": true
      }
    },
    {
      "type": "Feature",
      "geometry": {
        "type": "Point",
        "coordinates": [-0.039754800519192, 51.5875389545768]
      },
      "properties": {
        "name": "Yasar Kebab & Steak's",
        "category": "restaurant",
        "address": "8 Blackhorse Lane",
        "postcode": "E17 6HJ",
        "baby_change": "yes",
        "changing_location": "baby change in restaurant toilets",
        "verified": false
      }
    },
    {
      "type": "Feature",
      "geometry": {
        "type": "Point",
        "coordinates": [-0.0151643460340, 51.5978041806726]
      },
      "properties": {
        "name": "Dog and Duck",
        "category": "pub",
        "address": "222 Chingford Rd, London",
        "postcode": "E17 5AL",
        "baby_change": "yes",
        "changing_location": "baby change in the wine toilet",
        "verified": false
      }
    },
    {
      "type": "Feature",
      "geometry": {
        "type": "Point",
        "coordinates": [-0.002418, 51.5861297973845]
      },
      "properties": {
        "name": "Lancaster Home & Garden",
        "category": "shop",
        "address": "Unit 2, 186 Wood Rd",
        "postcode": "E17 3NZ",
        "baby_change": "yes",
        "changing_location": "1 unisex toilet with baby changing facilities",
        "verified": true
      }
    },
    {
      "type": "Feature",
      "geometry": {
        "type": "Point",
        "coordinates": [-0.0112269802940319, 51.5807038388545]
      },
      "properties": {
        "name": "The Castle",
        "category": "pub",
        "address": "15 Grosvenor Rise E, London",
        "postcode": "E17 9LB",
        "baby_change": "yes",
        "changing_location": "baby change in female toilets",
        "verified": true
      }
    },
    {
      "type": "Feature",
      "geometry": {
        "type": "Point",
        "coordinates": [-0.0135789564725148, 51.5823733052739]
      },
      "properties": {
        "name": "Queens Arms",
        "category": "pub",
        "address": "42 Orford Rd, London",
        "postcode": "E17 9NJ",
        "baby_change": "yes",
        "changing_location": "baby change in the female toilet (very tight squeeze)",
        "verified": true
      }
    }
  ]
}
